,City,Cloudiness,Country,Date,Humidity,Lat,Lng,Max Temp,Wind Speed
0,Avera,1,US,1558723116,46,33.19,-82.53,93.99,8.05
1,Wattegama,100,LK,1558723116,85,7.35,80.68,75.9,4.05
2,Georgetown,75,GY,1558723071,94,6.8,-58.16,77.0,2.24
3,Gizo,0,IL,1558723117,73,31.8,34.94,80.01,9.17
4,Jalu,0,LY,1558723117,17,29.03,21.55,84.72,11.18
5,Albany,40,US,1558723082,60,42.65,-73.75,69.01,21.92
6,Fort Nelson,75,CA,1558723118,54,58.81,-122.69,57.2,1.68
7,Uvira,69,CD,1558723118,98,-3.41,29.14,53.4,2.1
8,Leander,75,US,1558722998,62,30.56,-97.84,89.01,9.17
9,Punta Arenas,40,CL,1558723119,70,-53.16,-70.91,46.4,28.86
10,Arraial do Cabo,75,BR,1558723119,83,-22.97,-42.02,78.8,11.41
11,Rikitea,67,PF,1558723119,73,-23.12,-134.97,75.54,10.16
12,Talnakh,0,RU,1558723119,82,69.49,88.39,32.0,17.9
13,Chepareria,99,KE,1558723120,85,1.32,35.2,66.0,1.5
14,Huarmey,99,PE,1558723120,90,-10.07,-78.15,63.84,10.94
15,New Norfolk,75,AU,1558723120,58,-42.78,147.06,55.4,8.05
16,Nakhon Thai,100,TH,1558723121,71,17.1,100.84,81.12,3.42
17,Upernavik,83,GL,1558723121,77,72.79,-56.15,35.22,4.63
18,Saint-Francois,0,FR,1558723121,49,46.42,3.91,68.0,9.17
19,Ushuaia,75,AR,1558723122,75,-54.81,-68.31,44.6,21.92
20,Victoria,75,BN,1558723122,88,5.28,115.24,80.6,5.3
21,Gazojak,40,TM,1558723123,23,41.19,61.4,80.04,16.93
22,Mataura,99,NZ,1558723123,76,-46.19,168.86,53.01,1.99
23,Altay,0,CN,1558723123,34,47.83,88.13,33.78,8.48
24,Vaini,40,IN,1558723123,88,15.34,74.49,77.0,6.93
25,Springbok,0,ZA,1558723124,23,-29.67,17.88,72.84,3.4
26,Camargo,0,MX,1558723124,10,27.69,-105.17,85.08,5.06
27,Hermanus,0,ZA,1558723124,89,-34.42,19.24,60.01,5.99
28,Bethel,40,US,1558723003,81,60.79,-161.76,48.2,3.36
29,Castro-Urdiales,75,ES,1558723125,93,43.38,-3.22,60.8,11.41
30,Bluff,0,AU,1558723126,91,-23.58,149.07,60.06,7.18
31,Atuona,45,PF,1558723126,76,-9.8,-139.03,81.48,15.7
32,Taoudenni,0,ML,1558723126,10,22.68,-3.98,103.08,13.53
33,Dabola,87,GN,1558723126,36,10.74,-11.11,91.56,7.02
34,Cape Town,0,ZA,1558722974,93,-33.93,18.42,60.01,10.29
35,Barrow,83,AR,1558723127,36,-38.31,-60.23,67.26,10.29
36,Puerto Ayora,20,EC,1558723128,69,-0.74,-90.35,82.4,20.8
37,Uyuni,0,BO,1558723128,9,-20.46,-66.82,47.82,10.33
38,Qaanaaq,49,GL,1558723128,84,77.48,-69.36,33.96,7.0
39,Bakchar,100,RU,1558723129,72,57.02,82.07,53.58,11.77
40,Tuktoyaktuk,75,CA,1558723129,71,69.44,-133.03,51.8,10.29
41,Port Alfred,0,ZA,1558723129,94,-33.59,26.89,60.01,3.0
42,Berlevag,0,NO,1558723130,60,70.86,29.09,41.0,8.05
43,Busselton,37,AU,1558723130,68,-33.64,115.35,53.01,10.29
44,Viedma,81,AR,1558723130,20,-40.81,-62.99,68.34,17.67
45,East London,0,ZA,1558723131,93,-33.02,27.91,57.2,5.82
46,Worthington,90,US,1558722916,87,43.62,-95.6,66.0,13.87
47,Kavieng,97,PG,1558723131,74,-2.57,150.8,82.56,4.7
48,Tiksi,74,RU,1558723131,96,71.64,128.87,29.82,7.18
49,Longyearbyen,40,NO,1558723132,58,78.22,15.63,24.8,16.11
50,Talaya,0,RU,1558723132,43,55.79,84.89,55.4,15.66
51,Mar del Plata,99,AR,1558723132,48,-46.43,-67.52,58.44,25.72
52,Fort Thomas,40,US,1558723133,62,39.08,-84.45,88.0,12.75
53,Khatanga,100,RU,1558723133,95,71.98,102.47,31.08,7.7
54,Norman Wells,75,CA,1558723133,42,65.28,-126.83,62.6,10.29
55,Arlit,100,NE,1558723133,9,18.74,7.39,98.58,2.68
56,Bud,75,NO,1558723134,81,62.91,6.91,51.8,8.05
57,Avarua,61,CK,1558722939,83,-21.21,-159.78,75.2,10.29
58,Nikolskoye,75,RU,1558723135,54,59.7,30.79,57.2,7.58
59,Nabire,100,ID,1558723136,99,-3.36,135.5,70.5,0.83
60,Makakilo City,20,US,1558723136,65,21.35,-158.09,82.4,4.7
61,Butaritari,79,KI,1558723136,78,3.07,172.79,83.1,10.18
62,Kaitangata,100,NZ,1558723136,62,-46.28,169.85,51.01,4.0
63,Norsup,61,VU,1558723137,67,-16.07,167.38,77.7,5.03
64,Paita,0,PE,1558723137,290,-5.09,-81.11,62.6,18.34
65,Hilo,90,US,1558723137,88,19.71,-155.08,75.0,5.82
66,Esperance,40,TT,1558723137,49,10.24,-61.45,91.4,13.87
67,Airai,89,TL,1558723138,75,-8.93,125.41,73.92,6.98
68,Saint George,40,GR,1558723138,49,39.45,22.34,71.6,4.7
69,Ciechanow,0,PL,1558723139,63,52.88,20.62,66.99,5.82
70,Gondanglegi,46,ID,1558723139,91,-7.75,112.01,71.94,5.68
71,Taurage,51,LT,1558723139,78,55.25,22.29,54.84,6.02
72,Lagoa,0,PT,1558723140,36,37.14,-8.45,79.0,18.34
73,Sola,90,FI,1558723140,81,62.78,29.36,45.0,3.36
74,Constitucion,5,MX,1558723140,13,23.99,-104.67,78.01,4.7
75,The Pas,75,CA,1558723141,45,53.82,-101.24,64.4,9.17
76,Lorengau,53,PG,1558723141,89,-2.02,147.27,77.16,1.77
77,Saskylakh,53,RU,1558723141,95,71.97,114.09,19.02,5.86
78,Pevek,42,RU,1558723141,88,69.7,170.27,35.58,8.5
79,Kizema,81,RU,1558723142,60,61.11,44.83,37.02,2.37
80,Guangyuan,100,CN,1558723142,87,32.43,105.86,62.22,2.51
81,Inyonga,20,TZ,1558723143,67,-6.72,32.06,71.04,5.37
82,Antsohihy,0,MG,1558723143,62,-14.88,47.99,82.02,18.79
83,Hasaki,0,JP,1558723144,93,35.73,140.83,59.0,1.12
84,Yellowknife,40,CA,1558723144,38,62.45,-114.38,39.2,8.05
85,Parkes,0,AU,1558723144,73,-33.14,148.18,50.0,5.91
86,Araouane,19,ML,1558723144,9,18.9,-3.53,105.96,6.71
87,Vila Velha,20,BR,1558723145,62,-3.71,-38.6,88.0,16.11
88,Grindavik,20,IS,1558723145,71,63.84,-22.43,51.8,10.29
89,Pudozh,100,RU,1558723145,47,61.81,36.54,46.56,1.45
90,Luderitz,0,NA,1558723146,56,-26.65,15.16,68.0,3.36
91,Broome,0,GB,1558723146,67,52.47,1.45,69.8,8.05
92,Ha Tinh,51,VN,1558723146,72,18.33,105.9,80.76,3.44
93,Ribeira Grande,75,PT,1558723146,94,38.52,-28.7,68.0,5.82
94,Hobart,75,AU,1558722847,58,-42.88,147.33,55.4,8.05
95,Tiarei,20,PF,1558723147,69,-17.53,-149.33,82.4,11.41
96,Taltal,0,CL,1558723147,41,-25.41,-70.49,69.6,6.51
97,Eyl,11,SO,1558723147,67,7.98,49.82,83.28,10.07
98,Nouadhibou,0,MR,1558723148,68,20.93,-17.03,71.6,23.04
99,Hovd,75,NO,1558723148,76,63.83,10.7,55.4,21.92
100,Rawson,94,AR,1558723148,18,-43.3,-65.11,63.66,14.74
101,Chokurdakh,100,RU,1558723148,100,70.62,147.9,34.32,3.31
102,Betanzos,40,ES,1558723149,87,43.28,-8.21,61.0,11.41
103,Urgut,0,UZ,1558723149,72,39.41,67.25,59.0,9.17
104,Vestmannaeyjar,20,IS,1558723149,81,63.44,-20.27,50.0,4.7
105,Khani,75,GE,1558723150,73,41.96,42.96,71.6,5.82
106,Lebu,20,ET,1558723150,52,8.96,38.73,64.4,13.87
107,Faanui,36,PF,1558723150,72,-16.48,-151.75,82.74,9.55
108,Nome,90,US,1558723151,58,30.04,-94.42,90.0,11.41
109,Naifaru,100,MV,1558723151,76,5.44,73.37,85.08,14.83
110,Coaticook,90,CA,1558723151,76,45.13,-71.8,57.99,10.29
111,Banda Aceh,5,ID,1558723152,70,5.56,95.32,84.72,3.24
112,Papetoai,20,PF,1558723152,69,-17.5,-149.87,82.4,11.41
113,Yatou,40,CM,1558723154,83,3.63,9.81,82.4,2.24
114,Issia,99,CI,1558723155,73,6.49,-6.58,83.28,2.62
115,Tabou,97,CI,1558723155,93,4.42,-7.36,78.42,3.51
116,Vostok,0,RU,1558723155,69,46.45,135.83,53.58,5.68
117,Gandorhun,100,SL,1558723156,95,8.44,-10.86,76.26,2.89
118,Carnarvon,0,ZA,1558723156,27,-30.97,22.13,63.66,5.35
119,Kapaa,40,US,1558723160,74,22.08,-159.32,80.6,8.05
120,Belaya Gora,100,RU,1558723160,81,68.54,146.19,37.92,8.46
121,Puebloviejo,75,CO,1558723160,70,10.99,-74.28,95.0,4.7
122,Saint Anthony,90,US,1558723160,71,43.97,-111.68,54.0,11.41
123,Vanavara,72,RU,1558723161,59,60.35,102.28,35.94,4.88
124,Leicester,20,GB,1558723161,67,52.64,-1.13,66.2,10.29
125,Itoman,20,JP,1558723161,64,26.12,127.67,73.4,3.36
126,Castro,75,CL,1558723162,100,-42.48,-73.76,48.2,14.99
127,Alofi,75,NU,1558723162,100,-19.06,-169.92,71.6,9.17
128,Cidreira,100,BR,1558723162,74,-30.17,-50.22,64.92,9.15
129,Vao,97,EE,1558723163,94,59.1,26.19,52.14,2.01
130,Dunedin,52,NZ,1558723088,52,-45.87,170.5,54.0,4.0
131,Beira,40,ES,1558723163,87,43.2,-8.36,64.99,11.41
132,Cherskiy,7,RU,1558723163,81,68.75,161.3,42.78,14.81
133,Sawtell,70,AU,1558723164,87,-30.38,153.1,57.2,9.17
134,Talcahuano,0,CL,1558723164,71,-36.72,-73.12,53.6,10.29
135,Mehamn,0,NO,1558723164,60,71.03,27.85,41.0,8.05
136,Pflugerville,75,US,1558722944,62,30.44,-97.62,89.01,9.17
137,Hamilton,75,CA,1558723165,59,43.26,-79.87,71.01,4.7
138,Yar-Sale,2,RU,1558723165,85,66.83,70.83,23.7,8.79
139,Saint-Philippe,90,CA,1558723166,72,45.36,-73.48,63.0,12.75
140,Coquimbo,40,CL,1558723166,87,-29.95,-71.34,73.0,18.34
141,Bubaque,20,GW,1558723166,77,11.28,-15.83,80.22,17.0
142,Kruisfontein,0,ZA,1558723166,86,-34.0,24.73,52.68,2.84
143,Nhulunbuy,40,AU,1558723167,88,-12.18,136.78,77.0,9.17
144,Port Lincoln,69,AU,1558723167,73,-34.72,135.86,63.48,21.23
145,Mokobeng,0,BW,1558723167,59,-23.0,27.67,65.82,9.15
146,Kaitong,80,CN,1558723167,24,44.81,123.15,79.68,18.95
147,Charters Towers,4,AU,1558723168,90,-20.07,146.27,62.94,6.67
148,Bredasdorp,0,ZA,1558723168,87,-34.53,20.04,55.99,1.12
149,Seymchan,30,RU,1558723168,79,62.93,152.39,42.42,5.97
150,Thompson,90,CA,1558723169,87,55.74,-97.86,44.6,8.05
151,Hami,68,CN,1558723169,13,42.84,93.51,64.56,14.88
152,Atherton,20,GB,1558723170,67,53.52,-2.49,62.01,11.41
153,Medvezhyegorsk,100,RU,1558723170,56,62.92,34.47,42.6,3.87
154,Khandyga,100,RU,1558723170,85,62.65,135.58,42.24,1.79
155,Kodiak,1,US,1558723170,65,39.95,-94.76,78.8,14.99
156,Najran,40,SA,1558723171,65,17.54,44.22,77.0,5.82
157,Bonavista,80,CA,1558723171,85,48.65,-53.11,43.0,11.01
158,Marawi,100,PH,1558723171,91,8.0,124.29,77.0,3.0
159,Rome,0,IT,1558722973,77,41.89,12.48,66.99,6.93
160,Tonantins,39,BR,1558723172,48,-2.86,-67.77,92.64,3.15
161,Bonfim,40,BR,1558723172,42,-20.33,-44.24,84.2,10.29
162,Kothi,34,IN,1558723173,17,24.76,80.77,103.44,5.5
163,Ancud,75,CL,1558723173,100,-41.87,-73.83,48.2,14.99
164,Flinders,90,AU,1558723173,48,-34.58,150.85,60.8,13.87
165,Kropotkin,69,RU,1558723174,72,45.43,40.58,65.1,6.46
166,Novoplatnirovskaya,56,RU,1558723174,73,46.1,39.41,65.1,6.13
167,Alice Springs,57,AU,1558723174,81,-23.7,133.88,53.6,5.82
168,Naryan-Mar,48,RU,1558722955,83,67.67,53.09,27.84,11.86
169,Gidam,19,IN,1558723175,34,18.98,81.4,91.92,7.4
170,Belmonte,97,PT,1558723175,32,40.36,-7.35,73.99,5.01
171,Banjar,99,ID,1558723175,95,-7.37,108.54,74.1,1.72
172,Hithadhoo,52,MV,1558723120,76,-0.6,73.08,84.54,3.15
173,Ketchikan,75,US,1558723176,62,55.34,-131.65,53.6,17.22
174,Sur,96,OM,1558723176,36,22.57,59.53,89.4,2.42
175,Esil,55,KZ,1558723176,38,51.96,66.41,63.3,15.9
176,Tashla,0,RU,1558723177,75,53.71,49.75,41.0,8.95
177,Oktyabrskoye,0,RU,1558723177,43,56.73,85.44,55.99,15.66
178,Westport,40,IE,1558723178,72,53.8,-9.52,61.0,9.17
179,Bismarck,90,US,1558722933,87,46.81,-100.78,55.4,10.29
180,Dingle,94,PH,1558723178,79,11.0,122.67,78.6,3.29
181,Jamestown,6,AU,1558723179,93,-33.21,138.6,53.4,4.47
182,Faya,20,SA,1558723179,82,18.39,42.45,62.6,4.7
183,Oyem,97,GA,1558723179,95,1.6,11.57,73.56,2.04
184,Dalvik,40,SE,1558723180,87,57.79,14.13,51.01,9.17
185,Sao Filipe,3,CV,1558723180,82,14.9,-24.5,72.66,18.39
186,Ostrovnoy,92,RU,1558723180,63,68.05,39.51,37.2,5.91
187,Pitimbu,40,BR,1558723181,62,-7.47,-34.81,86.0,14.99
188,Labuhan,92,ID,1558723181,89,-2.54,115.51,75.36,2.93
189,Fairbanks,90,US,1558723181,81,64.84,-147.72,53.6,3.36
190,San Patricio,99,PY,1558723182,80,-26.98,-56.83,63.12,6.2
191,Provideniya,96,RU,1558723182,89,64.42,-173.23,35.94,4.94
192,Srednekolymsk,36,RU,1558723182,64,67.46,153.71,49.08,9.06
193,Walvis Bay,75,NA,1558723183,43,-22.95,14.51,73.4,3.36
194,Coruripe,70,BR,1558723188,63,-10.12,-36.18,83.82,9.98
195,Caravelas,43,BR,1558723188,58,-17.73,-39.27,85.62,6.33
196,Saldanha,91,PT,1558723189,33,41.42,-6.55,73.38,7.99
197,Alekseyevka,0,RU,1558723189,75,53.25,50.49,41.0,8.95
198,Narsaq,75,GL,1558723190,28,60.91,-46.05,55.4,44.96
199,Moundsville,1,US,1558723190,47,39.92,-80.74,80.01,6.93
200,Pangnirtung,75,CA,1558723190,86,66.15,-65.72,33.8,13.87
201,Kulhudhuffushi,65,MV,1558723190,73,6.62,73.07,85.8,12.17
202,Vila Franca do Campo,20,PT,1558723191,82,37.72,-25.43,68.0,6.93
203,Codrington,90,AU,1558723191,100,-28.95,153.24,62.01,4.7
204,Fallon,90,US,1558723191,87,46.84,-105.12,44.6,6.93
205,Chesterton,40,US,1558723192,60,41.61,-87.06,73.0,5.82
206,Umkomaas,31,ZA,1558723192,94,-30.21,30.8,64.0,1.57
207,Bathsheba,40,BB,1558723193,62,13.22,-59.52,87.8,16.11
208,Mahibadhoo,100,MV,1558723193,75,3.78,72.97,84.72,12.5
209,Bouna,84,CI,1558723193,52,9.27,-3.0,89.58,2.53
210,Potam,5,MX,1558723194,13,27.6,-110.38,88.0,4.7
211,Rundu,0,NA,1558723194,24,-17.91,19.77,71.6,2.24
212,Vardo,1,US,1558723194,34,39.62,-77.74,82.0,18.34
213,Nacozari,0,MX,1558723195,34,25.34,-108.26,91.0,3.0
214,Along,51,IN,1558723195,89,28.17,94.8,55.38,3.53
215,Bandarbeyla,11,SO,1558723195,67,9.49,50.81,83.46,8.43
216,Te Anau,100,NZ,1558723195,90,-45.41,167.72,45.66,5.23
217,Mokhsogollokh,50,RU,1558723196,94,61.4,128.95,40.08,2.8
218,Hofn,90,IS,1558723196,81,64.25,-15.21,42.8,9.17
219,Torbay,90,CA,1558723196,81,47.66,-52.73,46.99,12.75
220,Kyela,0,MW,1558723196,99,-9.6,33.87,58.62,2.75
221,Gabu,73,CN,1558723197,55,34.78,103.0,43.5,1.83
222,Frontignan,0,FR,1558723197,77,43.45,3.75,64.99,12.75
223,Norrtalje,0,SE,1558723197,93,59.76,18.7,55.0,5.82
224,Souillac,0,FR,1558723198,82,45.6,-0.6,66.99,8.05
225,Altamirano,0,AR,1558723198,45,-35.36,-58.15,70.0,8.05
226,Ixtapa,5,MX,1558723198,62,20.71,-105.21,84.2,9.17
227,Port-Gentil,40,GA,1558723199,88,-0.72,8.78,80.6,13.87
228,Santa Lucia,99,IT,1558723200,62,39.93,9.66,64.99,3.78
229,Bambous Virieux,40,MU,1558723200,83,-20.34,57.76,75.2,2.24
230,Kamalpur,97,BD,1558723200,97,24.17,91.81,77.88,1.32
231,Nettuno,0,IT,1558723201,77,41.46,12.66,66.99,4.7
232,Betare Oya,69,CM,1558723201,85,5.6,14.08,74.1,0.56
233,Kahului,40,US,1558723001,65,20.89,-156.47,80.6,3.36
234,Isangel,43,VU,1558723201,79,-19.55,169.27,76.8,11.56
235,Luzhou,100,CN,1558723202,76,28.89,105.45,74.46,5.03
236,Caramay,93,PH,1558723202,91,10.18,119.24,76.62,2.13
237,Cayenne,0,GF,1558723202,66,4.94,-52.33,87.8,11.41
238,Komsomolets,13,RU,1558723203,83,52.77,41.29,52.68,8.03
239,Pueblo Rico,40,CO,1558723203,69,5.22,-76.03,80.6,6.93
240,Lander,1,US,1558723203,47,42.83,-108.73,57.0,8.84
241,Bahadurganj,75,IN,1558723204,88,26.26,87.82,77.0,6.93
242,Fortuna,40,ES,1558723204,72,38.18,-1.13,68.0,4.7
243,Paamiut,100,GL,1558723205,58,61.99,-49.67,45.48,19.06
244,Chicama,75,PE,1558723205,83,-7.84,-79.15,69.8,9.17
245,Batemans Bay,97,AU,1558723205,69,-35.71,150.18,61.0,1.99
246,Jilib,100,SO,1558723205,90,0.49,42.79,76.8,4.94
247,Lubu,100,CN,1558723142,97,23.17,112.28,74.1,3.56
248,Nuuk,75,GL,1558723206,50,64.17,-51.74,55.4,4.7
249,Chuy,0,UY,1558723206,51,-33.69,-53.46,62.22,2.13
250,Gushikawa,1,JP,1558723206,88,26.35,127.87,73.4,5.82
251,Hambantota,20,LK,1558723207,100,6.12,81.12,78.8,5.82
252,Broken Hill,3,AU,1558723207,39,-31.97,141.45,64.4,10.29
253,Kalemie,8,CD,1558723207,84,-5.95,29.2,66.72,3.0
254,Batagay-Alyta,88,RU,1558723208,91,67.8,130.41,22.98,1.81
255,Lena,1,US,1558723208,51,32.59,-89.61,91.0,6.93
256,Kambove,9,CD,1558723208,70,-10.88,26.6,60.78,3.67
257,Kumluca,17,TR,1558723209,62,36.37,30.29,52.5,4.09
258,Hirara,0,JP,1558723209,62,24.8,125.28,77.52,16.98
259,Monrovia,100,LR,1558723209,81,6.33,-10.8,79.68,3.56
260,Port Elizabeth,1,US,1558723210,36,39.31,-74.98,81.0,16.11
261,Manutuke,1,NZ,1558723210,98,-38.68,177.91,43.0,1.01
262,Honiara,75,SB,1558723210,94,-9.43,159.96,75.2,5.82
263,Zaysan,0,KZ,1558723211,61,47.47,84.87,42.6,2.86
264,Acapulco,5,MX,1558723211,74,16.86,-99.88,86.0,6.93
265,Belomorsk,100,RU,1558723211,52,64.52,34.76,41.7,7.67
266,Visby,75,SE,1558723212,66,57.64,18.3,55.99,17.22
267,Tual,100,ID,1558723212,77,-5.67,132.75,83.46,16.46
268,San Quintin,85,PH,1558723213,75,17.54,120.52,78.96,2.28
269,Tekkali,77,IN,1558723213,79,18.62,84.23,84.36,11.18
270,Verkhoyansk,59,RU,1558723213,71,67.55,133.39,35.58,6.76
271,Skelleftea,90,SE,1558723214,93,64.75,20.95,43.0,8.05
272,Cartagena,20,ES,1558723214,64,37.63,-1.0,68.0,23.04
273,Ahipara,39,NZ,1558723214,100,-35.17,173.16,54.0,7.67
274,Imeni Babushkina,44,RU,1558723215,56,59.76,43.13,40.26,2.71
275,Kosh-Agach,8,RU,1558723215,38,49.99,88.66,33.24,3.38
276,Abu Samrah,75,SY,1558723215,17,35.3,37.18,86.16,11.01
277,At-Bashi,100,KG,1558723211,85,41.17,75.81,45.3,4.5
278,Gigmoto,98,PH,1558723216,76,13.78,124.39,83.82,8.81
279,Libreville,40,GA,1558723185,88,0.39,9.45,82.4,10.29
280,Clyde River,75,CA,1558723216,92,70.47,-68.59,28.4,11.41
281,Slantsy,100,RU,1558723217,89,59.12,28.09,51.42,2.59
282,Necochea,18,AR,1558723155,15,-38.55,-58.74,71.01,5.99
283,Lompoc,1,US,1558723215,68,34.64,-120.46,71.01,11.41
284,Husavik,100,CA,1558723217,91,50.56,-96.99,51.01,3.0
285,Severo-Kurilsk,99,RU,1558723218,94,50.68,156.12,40.26,8.57
286,La Ronge,90,CA,1558723218,93,55.1,-105.3,44.6,9.17
287,Sinnamary,48,GF,1558723218,79,5.38,-52.96,82.56,12.35
288,Sept-Iles,75,CA,1558723043,53,50.2,-66.38,55.99,10.29
289,Masuguru,30,MZ,1558723219,64,-11.38,38.46,76.62,4.25
290,Fowa,92,NG,1558723219,45,8.92,6.4,93.36,9.19
291,Aripuana,59,BR,1558723219,59,-9.17,-60.63,88.14,4.09
292,Grand-Santi,63,GF,1558723220,53,4.27,-54.38,90.84,3.18
293,Mangai,86,CD,1558723220,73,-4.07,19.59,78.24,2.21
294,Lavrentiya,98,RU,1558723220,82,65.58,-170.99,36.48,4.25
295,Divnoye,91,RU,1558723221,65,45.91,43.34,66.18,3.51
296,Hajdudorog,75,HU,1558723221,88,47.82,21.5,62.6,4.7
297,Dikson,54,RU,1558723221,92,73.51,80.55,24.78,6.11
298,Tasiilaq,75,GL,1558723222,75,65.61,-37.64,35.6,6.93
299,Bulgan,100,MN,1558723222,92,48.81,103.53,36.3,2.75
300,Guerrero Negro,0,MX,1558723189,81,27.97,-114.04,61.32,15.46
301,Cap Malheureux,40,MU,1558723222,83,-19.98,57.61,75.2,2.24
302,Pangai,75,TO,1558723223,83,-19.8,-174.35,77.0,14.99
303,Ventersburg,72,ZA,1558723223,35,-28.08,27.14,60.06,4.65
304,Port Blair,94,IN,1558723223,72,11.67,92.75,85.98,7.45
305,Yertsevo,58,RU,1558723223,49,60.8,40.09,42.06,0.98
306,Hobyo,6,SO,1558723224,73,5.35,48.53,84.18,12.62
307,Venado Tuerto,8,AR,1558723209,16,-33.75,-61.97,71.01,8.01
308,Alihe,71,CN,1558723224,70,50.57,123.73,48.54,6.42
309,Kinablangan,63,PH,1558723225,86,7.69,126.55,75.18,2.51
310,Cockburn Town,34,TC,1558723225,77,21.46,-71.14,80.76,11.86
311,Xacmaz,30,AZ,1558723225,73,41.46,48.81,57.0,2.71
312,Mitu,60,IR,1558723226,29,36.2,46.09,67.26,8.48
313,Saint-Augustin,0,FR,1558723226,82,44.83,-0.61,66.99,8.05
314,Russell,0,AR,1558723227,31,-33.01,-68.8,60.8,4.7
315,Sitka,12,US,1558723227,55,37.17,-99.65,71.01,1.01
316,Nanjing,0,CN,1558723227,39,32.06,118.79,78.8,6.71
317,Helong,30,CN,1558723228,94,25.94,116.13,70.5,4.23
318,Cabra,0,ES,1558723228,20,37.47,-4.43,87.8,3.36
319,Gornopravdinsk,100,RU,1558723228,53,60.06,69.92,40.62,5.73
320,Saurimo,16,AO,1558723228,43,-9.66,20.4,74.64,5.28
321,Tigil,95,RU,1558723229,75,57.8,158.67,47.64,6.64
322,Praia,40,BR,1558723229,42,-20.25,-43.81,84.2,10.29
323,Gibara,75,CU,1558723229,62,21.11,-76.13,86.0,13.87
324,Kajaani,90,FI,1558722976,75,64.22,27.73,42.8,6.93
325,Bacungan,20,PH,1558723230,88,9.87,118.73,78.8,4.7
326,Pisco,90,PE,1558723230,30,-13.71,-76.2,71.6,8.05
327,Tacuarembo,0,UY,1558723000,51,-31.73,-55.98,60.96,3.02
328,Birjand,0,IR,1558723230,30,32.86,59.22,71.6,6.93
329,Lakes Entrance,100,AU,1558723231,58,-37.88,147.99,66.0,5.99
330,Mbaiki,84,CF,1558723231,82,3.87,17.99,76.98,3.0
331,Kimovsk,43,RU,1558723032,88,53.97,38.53,51.42,6.82
332,Camacha,75,PT,1558723231,82,33.08,-16.33,69.8,12.75
333,Grand Gaube,40,MU,1558723232,83,-20.01,57.66,75.2,2.24
334,Los Llanos de Aridane,20,ES,1558723232,77,28.66,-17.92,69.8,17.22
335,Esna,90,RO,1558723232,82,45.2,27.57,60.8,9.17
336,Soure,0,PT,1558723101,68,40.06,-8.63,68.0,24.16
337,Vila,0,IT,1558723233,49,45.18,8.4,75.99,5.82
338,Yuli,100,NG,1558723233,22,10.52,9.86,94.26,3.29
339,Ahvaz,0,IR,1558722981,22,31.32,48.68,96.8,4.7
340,Sistranda,75,NO,1558723234,76,63.73,8.83,50.0,13.87
341,Prince Rupert,90,CA,1558723234,66,54.32,-130.32,53.6,9.17
342,Tautira,20,PF,1558723234,69,-17.73,-149.15,82.4,11.41
343,Aswan,45,EG,1558723235,8,24.09,32.9,102.0,9.84
344,Balabac,94,PH,1558723235,73,7.99,117.06,84.72,6.98
345,Amurzet,0,CN,1558723235,92,47.69,131.09,57.9,1.77
346,Qala,0,MT,1558723235,52,36.04,14.31,66.99,8.05
347,Baykit,10,RU,1558723236,69,61.68,96.39,30.9,2.28
348,Mahebourg,40,MU,1558723236,83,-20.41,57.7,75.2,2.24
349,Navrongo,72,GH,1558723236,35,10.89,-1.09,96.6,3.94
350,Meulaboh,100,ID,1558723236,77,4.14,96.13,83.46,8.23
351,Watsa,81,CD,1558723237,91,3.04,29.53,67.8,0.51
352,Auki,64,NG,1558723237,25,12.18,6.51,98.76,10.38
353,Puri,58,ID,1558723237,84,-7.54,112.45,74.28,7.25
354,Abu Dhabi,0,AE,1558723238,62,24.47,54.37,86.0,3.36
355,Karratha,89,AU,1558723238,44,-20.74,116.85,77.88,7.45
356,Ulladulla,90,AU,1558723238,48,-35.36,150.48,60.8,13.87
357,College,90,US,1558723239,81,64.86,-147.8,55.4,3.36
358,Tura,83,IN,1558723239,91,25.52,90.21,77.88,5.73
359,Cabo San Lucas,5,MX,1558723239,57,22.89,-109.91,84.0,8.1
360,Rocha,0,UY,1558723240,64,-34.48,-54.34,61.5,6.85
361,Kolosovka,100,RU,1558723240,47,56.47,73.61,62.4,18.25
362,Padilla,40,CO,1558723240,51,3.23,-76.31,84.2,2.24
363,Carlagan,100,PH,1558723242,81,14.97,122.05,81.12,5.37
364,Guelph,40,CA,1558723035,67,43.55,-80.25,71.01,5.82
365,Buala,92,SB,1558723242,80,-8.15,159.59,81.12,9.57
366,Margate,75,AU,1558723242,58,-43.03,147.26,55.4,8.05
367,Batsfjord,0,NO,1558723243,51,70.63,29.72,41.0,9.17
368,Sisimiut,50,GL,1558723243,64,66.94,-53.67,42.24,17.49
369,Mosquera,40,CO,1558723007,67,4.71,-74.23,62.6,5.82
370,Nurota,0,UZ,1558723243,59,40.56,65.69,62.6,6.93
371,Torres Vedras,20,PT,1558722951,52,39.09,-9.26,70.0,17.22
372,Klaksvik,98,FO,1558723244,70,62.23,-6.59,44.6,9.17
373,Nampula,75,MZ,1558723245,100,-15.12,39.26,68.0,9.17
374,Katsuura,20,JP,1558723245,59,33.93,134.5,66.2,10.29
375,Ha Giang,1,VN,1558723245,96,22.83,104.99,65.64,3.56
376,San Cristobal,20,EC,1558723245,46,-0.39,-78.55,69.8,3.36
377,Lokosovo,100,RU,1558723246,63,61.13,74.84,42.6,8.77
378,Zhangye,67,CN,1558723246,17,38.94,100.46,58.26,9.28
379,Ossora,95,RU,1558723247,96,59.24,163.07,37.74,3.36
380,Cocobeach,40,GA,1558723247,88,1.01,9.58,82.4,10.29
381,Rach Gia,20,VN,1558723247,100,10.02,105.08,78.8,2.24
382,Porosozero,100,RU,1558723248,69,62.72,32.71,42.78,5.82
383,Hue,40,VN,1558723248,83,16.47,107.58,82.4,2.24
384,Sidi Ali,100,DZ,1558723248,73,36.1,0.42,69.78,7.58
385,Qaqortoq,75,GL,1558723248,28,60.72,-46.03,55.4,44.96
386,Kimbe,75,PG,1558723249,92,-5.56,150.15,73.92,3.87
387,Belyy Yar,0,RU,1558723249,93,53.6,91.39,39.2,4.47
388,Tazovskiy,100,RU,1558723249,98,67.47,78.7,37.02,20.8
389,Si Bun Ruang,24,TH,1558723249,65,16.97,102.28,80.76,3.47
390,Flagstaff,1,US,1558722972,29,35.2,-111.65,60.01,5.82
391,Asyut,0,EG,1558723250,5,27.18,31.19,102.72,9.06
392,Ponta do Sol,100,BR,1558723250,65,-20.63,-46.0,74.64,10.11
393,Wanning,93,AT,1558723251,49,48.64,13.53,68.0,2.24
394,Ozu,0,JP,1558723251,49,33.51,132.54,69.01,4.0
395,Texarkana,20,US,1558723251,58,33.44,-94.04,87.01,11.41
396,Erechim,75,BR,1558723252,93,-27.64,-52.27,62.6,13.87
397,Hinton,41,CA,1558723252,70,53.4,-117.57,52.0,1.01
398,Winnemucca,75,US,1558723246,51,40.97,-117.74,60.01,8.05
399,Turukhansk,63,RU,1558723253,68,65.8,87.96,40.26,16.4
400,Terrace,40,CA,1558723253,54,54.52,-128.61,62.01,13.87
401,Micheweni,100,TZ,1558723253,78,-4.97,39.83,81.48,17.54
402,Muisne,75,EC,1558723254,83,0.61,-80.02,84.2,13.87
403,Kabalo,74,CD,1558723254,56,-6.05,26.92,79.68,4.05
404,Campbeltown,5,GB,1558723255,66,55.43,-5.61,57.0,13.87
405,Orotukan,99,RU,1558723255,78,62.26,151.67,42.06,7.34
406,Leningradskiy,85,RU,1558723255,87,69.38,178.42,34.5,9.06
407,Henties Bay,0,NA,1558723255,85,-22.12,14.28,63.0,1.01
408,Adrar,48,DZ,1558723256,9,27.87,-0.29,102.2,8.05
409,Bayeux,0,FR,1558723256,67,49.28,-0.7,60.8,10.29
410,Sarkand,90,KZ,1558723256,52,45.41,79.91,52.86,2.37
411,Angoche,6,MZ,1558723257,87,-16.23,39.91,72.66,6.67
412,San Andres del Rabanedo,20,ES,1558723257,47,42.61,-5.62,66.99,13.87
413,Kailua,90,US,1558723257,78,21.39,-157.74,82.4,6.93
414,Olovyannaya,100,RU,1558723257,39,50.94,115.59,50.52,6.89
415,Mbandaka,21,CD,1558723258,69,0.05,18.26,79.68,1.88
416,Ashland,75,US,1558723075,88,38.48,-82.64,88.0,7.52
417,Concordia,0,AR,1558723258,63,-31.4,-58.02,64.4,4.16
418,Laguna,5,MX,1558723259,13,27.52,-110.01,86.0,4.7
419,Iqaluit,75,CA,1558723259,64,63.75,-68.52,37.4,5.82
420,Diego de Almagro,0,CL,1558723260,16,-26.39,-70.05,75.36,7.58
421,Basco,40,US,1558723260,94,40.33,-91.2,82.99,14.99
422,Yataity del Norte,100,PY,1558723260,91,-24.85,-56.36,58.98,3.44
423,Maceio,40,BR,1558723260,58,-9.67,-35.74,84.2,5.82
424,Rovenki,98,RU,1558723261,83,49.91,38.89,63.3,6.46
425,Dryden,90,CA,1558723261,66,49.79,-92.84,51.8,14.99
426,Tianpeng,100,CN,1558723261,91,28.88,112.34,75.9,3.98
427,Lumberton,90,US,1558723262,58,30.27,-94.2,90.0,11.41
428,Moose Factory,1,CA,1558723262,80,51.26,-80.61,41.0,11.41
429,Bar Harbor,90,US,1558723140,93,44.39,-68.2,55.0,19.46
430,Iskateley,48,RU,1558723263,83,67.68,53.15,27.84,11.86
431,Kirakira,100,SB,1558723263,81,-10.46,161.92,78.6,8.12
432,Nkayi,89,CG,1558723263,87,-4.18,13.29,78.24,3.53
433,Palmer,90,AU,1558723264,93,-34.85,139.16,57.99,9.17
434,Mandera,63,ET,1558723264,58,3.94,41.86,84.36,11.92
435,Mangan,19,IN,1558723264,72,27.5,88.54,54.66,2.28
436,Kem,100,UG,1558723265,93,2.68,33.77,67.62,1.57
437,Harper,90,US,1558723265,58,30.3,-99.24,82.99,13.87
438,Lasa,40,CY,1558723265,78,34.92,32.53,75.2,18.34
439,San Jeronimo,0,PE,1558723266,38,-13.65,-73.37,60.8,10.54
440,Kendari,53,ID,1558723266,96,-3.99,122.52,73.56,2.71
441,Kirkwall,75,GB,1558723107,93,58.98,-2.96,50.0,18.34
442,Teknaf,3,BD,1558723266,81,20.86,92.31,85.62,12.44
443,Tuatapere,92,NZ,1558723246,76,-46.13,167.69,53.01,1.99
444,Solnechnyy,100,RU,1558723267,94,50.72,136.64,57.72,4.59
445,Kostomuksha,100,RU,1558723267,58,64.59,30.6,44.76,3.6
446,Port Said,0,EG,1558723268,8,25.34,30.55,94.62,1.79
447,Gorontalo,43,ID,1558723268,85,0.54,123.06,77.16,3.02
448,Mason City,90,US,1558723138,88,43.15,-93.2,71.01,13.87
449,Tuban,65,ID,1558723268,86,-6.9,112.07,74.46,5.53
450,Kota Belud,75,MY,1558723269,83,6.35,116.43,80.01,6.93
451,Ustrzyki Dolne,100,UA,1558723269,80,49.43,22.59,59.0,8.01
452,Namibe,0,AO,1558723270,78,-15.19,12.15,71.22,10.85
453,Santa Cruz de la Palma,20,ES,1558723270,77,28.68,-17.76,69.8,17.22
454,Nyzhni Sirohozy,100,UA,1558723270,68,46.85,34.38,66.54,6.67
455,Shaowu,63,CN,1558723271,74,27.34,117.49,68.34,4.25
456,Kalengwa,0,ZM,1558723271,42,-13.47,25.0,64.56,6.64
457,Dauriya,100,RU,1558723272,36,49.93,116.85,53.76,3.2
458,Gamba,39,CN,1558723272,47,28.28,88.52,39.54,6.06
459,Sao Joao da Barra,0,BR,1558723272,46,-21.64,-41.05,89.6,4.7
460,Igdir,75,IR,1558723273,40,37.52,45.24,69.8,4.7
461,Deputatskiy,90,RU,1558723273,92,69.3,139.9,26.94,0.63
462,Bowen,90,AU,1558723273,88,-20.01,148.25,68.0,5.82
463,Pargolovo,75,RU,1558723273,54,60.08,30.28,57.2,7.14
464,Weyburn,100,CA,1558723274,86,49.67,-103.85,46.99,10.0
465,Kargasok,100,RU,1558723274,89,59.06,80.87,53.4,13.38
466,Naze,97,NG,1558723274,70,5.43,7.07,82.74,4.07
467,Portsmouth,20,GB,1558723099,55,50.8,-1.08,68.0,8.05
468,Mayor Pablo Lagerenza,0,PY,1558723275,26,-19.93,-60.77,77.7,3.06
469,Vegreville,100,CA,1558723275,62,53.5,-112.05,61.0,3.0
470,Novyy Urengoy,100,RU,1558723275,94,66.08,76.63,32.16,8.16
471,Ambilobe,0,MG,1558723276,74,-13.19,49.05,75.72,10.83
472,Lata,36,IN,1558723276,84,30.78,78.62,27.48,7.09
473,Visnes,75,NO,1558723276,87,59.36,5.22,50.0,19.46
474,Mucuri,28,BR,1558723277,56,-18.08,-39.55,86.16,5.88
475,Nalut,0,LY,1558723277,17,31.86,10.98,88.14,7.49
476,Trairi,57,BR,1558723096,85,-3.28,-39.27,80.94,5.08
477,Kawalu,97,ID,1558723277,95,-7.38,108.21,71.4,3.6
478,Kitimat,40,CA,1558723278,54,54.02,-128.69,62.01,13.87
479,Road Town,40,VG,1558723278,62,18.42,-64.62,84.2,10.29
480,Flin Flon,90,CA,1558723278,81,54.77,-101.88,48.2,8.05
481,Egvekinot,39,RU,1558723279,88,66.32,-179.17,30.36,4.79
482,Half Moon Bay,90,US,1558723279,87,37.46,-122.43,71.01,8.05
483,Itupiranga,40,BR,1558723075,59,-5.13,-49.33,93.2,6.93
484,La Chapelle-sur-Erdre,90,FR,1558723280,55,47.3,-1.55,66.2,8.05
485,Trelew,94,AR,1558723280,18,-43.25,-65.31,63.66,14.74
486,Krasnoznamensk,79,RU,1558723280,78,54.94,22.49,54.48,6.38
487,Mount Isa,40,AU,1558723281,42,-20.73,139.49,66.2,9.17
488,Ajaccio,0,FR,1558723281,59,41.93,8.74,68.0,3.36
489,Mayahi,26,NE,1558723281,9,13.95,7.67,105.06,2.08
490,Bongouanou,100,CI,1558723281,94,6.65,-4.2,78.78,3.33
491,Loa Janan,100,ID,1558723282,97,-0.58,117.09,74.82,1.57
492,Cardston,40,CA,1558723282,54,49.2,-113.32,59.0,5.66
493,Conway,40,US,1558723282,55,35.09,-92.44,89.01,8.05
494,Asha,2,RU,1558723283,67,54.99,57.29,38.82,5.79
495,Partsa,0,RU,1558723283,72,54.37,42.86,46.92,6.17
496,Poum,40,MK,1558723283,76,41.28,20.71,55.4,3.36
497,Tabasalu,0,EE,1558723284,87,59.43,24.54,55.4,2.24
498,Chingirlau,72,KZ,1558723284,83,51.09,54.08,53.4,13.69
499,Leh,67,IN,1558723284,51,34.16,77.58,30.54,2.26
500,Richards Bay,2,ZA,1558723198,75,-28.77,32.06,73.2,16.06
501,Kemlya,0,RU,1558723285,69,54.69,45.24,42.96,3.85
502,Katherine,75,AU,1558723285,77,-14.47,132.26,68.0,8.05
503,Kenderes,75,HU,1558723286,72,47.25,20.67,64.4,2.24
504,Salalah,40,OM,1558723286,89,17.01,54.1,86.0,6.93
505,Atar,0,MR,1558723286,8,20.52,-13.05,100.4,4.7
506,Ambon,0,FR,1558723287,63,47.55,-2.56,66.0,10.29
507,Farah,0,AF,1558723287,20,32.37,62.11,81.3,7.16
508,Xiongyue,100,CN,1558723287,58,40.18,122.12,59.88,19.33
509,Teguldet,55,RU,1558723288,63,57.31,88.17,45.66,7.58
510,Lichinga,16,MZ,1558723288,67,-13.3,35.25,69.06,5.21
511,Taybad,91,IR,1558723157,25,34.74,60.78,73.38,13.31
512,Bilibino,4,RU,1558723288,91,68.06,166.44,32.7,7.94
513,Boo,98,NG,1558723289,51,7.44,8.9,90.12,6.85
514,Tomatlan,0,MX,1558723289,51,19.93,-105.25,88.32,7.67
515,Coos Bay,90,US,1558723011,76,43.37,-124.22,62.01,8.05
516,Brest,92,BY,1558723289,82,52.09,23.69,62.6,6.71
517,Mecca,71,SA,1558723290,43,21.43,39.83,91.74,3.69
518,Pedernales,9,EC,1558723290,84,0.07,-80.05,78.6,18.07
519,Taoru,0,IN,1558723290,54,28.22,76.95,95.0,4.7
520,Kamiiso,26,JP,1558723291,96,41.82,140.65,49.08,4.34
521,Marzuq,1,YE,1558723291,34,14.4,46.47,81.66,8.88
522,Biak,100,ID,1558723291,99,-0.91,122.88,65.64,3.42
523,Emden,90,DE,1558723291,76,53.37,7.21,57.0,12.75
524,Nanortalik,100,GL,1558723292,51,60.14,-45.24,49.08,24.09
525,Ialibu,61,PG,1558723292,97,-6.28,143.99,63.84,2.21
526,Mercedes,0,UY,1558723292,53,-33.25,-58.03,63.12,6.89
527,Goderich,80,CA,1558723235,71,43.74,-81.71,63.0,4.0
528,Soe,75,EE,1558723293,100,57.91,26.05,57.2,3.36
529,San Policarpo,100,PH,1558723293,75,12.18,125.51,82.02,2.89
530,Labytnangi,100,RU,1558723293,91,66.66,66.39,22.26,10.22
531,Ouadda,93,CF,1558723294,80,8.07,22.4,74.64,4.99
532,Xian,20,ES,1558723294,72,42.76,-8.49,70.0,16.11
533,Santiago del Estero,0,AR,1558723259,24,-27.8,-64.26,70.5,10.45
534,Ishigaki,0,JP,1558723295,67,24.34,124.16,77.7,15.7
535,Cuenca,67,ES,1558723295,56,40.07,-2.13,62.01,4.0
536,Bosaso,6,SO,1558723295,72,11.28,49.18,86.7,5.17
537,Yerbogachen,80,RU,1558723296,63,61.28,108.01,37.56,6.15
538,Saint-Joseph,75,FR,1558723296,82,43.56,6.97,66.2,2.24
539,Sorland,40,NO,1558723297,75,67.67,12.69,44.6,24.16
540,Lukiv,100,UA,1558723297,86,51.05,25.4,63.0,6.33
541,Sao Gabriel da Cachoeira,100,BR,1558723297,84,-0.13,-67.09,83.28,2.08
542,Antofagasta,20,CL,1558723297,67,-23.65,-70.4,68.0,13.87
543,Champerico,40,MX,1558723298,46,16.38,-93.6,89.6,2.24
544,Gat,0,SN,1558723298,61,14.69,-16.54,78.8,18.34
545,Havre-Saint-Pierre,75,CA,1558723298,50,50.23,-63.6,55.4,12.75
546,Lobau,0,AT,1558723299,48,48.2,16.49,68.0,3.36
547,Hualmay,96,PE,1558723271,92,-11.1,-77.61,63.12,9.95
548,Bushehr,0,IR,1558723299,58,28.97,50.84,84.2,1.25
